time, lat, lon, altitude, battery_min, acc_avg, acc_max, rollspeed_fused_max, pitchspeed_fused_max, yawspeed_fused_max, trigger_noisy_acc, trigger_gps_missed_beat
613459235.770706, -35.363261, 149.1652296, 583.8050000000001, 100, 1.001, 1.001, 0.0003835301613435149, 0.00025288405595347285, 0.00022477569291368127, 0, 0
613459236.783704, -35.363261, 149.1652296, 583.1600000000001, 99, 1.0010022477472003, 1.0010044954944006, 0.00033165732747875154, 0.00028405687771737576, 0.000394807051634416, 0, 0
613459237.770705, -35.363261, 149.1652296, 583.0150000000001, 99, 1.0481537171147703, 1.0970186871699132, 0.06168122589588165, 0.07172137498855591, 0.002472558757290244, 0, 0
613459238.7887049, -35.363260600000004, 149.16522989999999, 584.4749999999999, 99, 1.0599787129801443, 1.0797430249832596, 0.00332820788025856, 0.04357520118355751, 0.005988382734358311, 0, 0
613459239.770674, -35.3632599, 149.16523065, 587.065, 99, 1.0104873179345604, 1.0120301378911598, 0.008495263755321503, 0.16567650437355042, 0.009713289327919483, 0, 0
613459240.782898, -35.3632596, 149.16523085, 590.16, 99, 1.00849735919881, 1.010962412753313, 0.016837427392601967, 0.014084400609135628, 0.007072629407048225, 0, 0
613459241.792703, -35.363259850000006, 149.16522985, 593.39, 98, 1.0087350389837364, 1.0095231547616923, 0.01638380065560341, 0.024334704503417015, 0.014670693315565586, 0, 0
613459242.7706769, -35.36325965, 149.16522895, 596.4749999999999, 98, 1.005106057195998, 1.006783492117347, 0.008836346678435802, 0.028909927234053612, 0.02118137665092945, 0, 0
613459243.782701, -35.363259049999996, 149.16522874999998, 599.21, 98, 1.0017140236957391, 1.0060168984664224, 0.0020376991014927626, 0.028932582587003708, 0.023892460390925407, 0, 0
613459244.7647269, -35.3632586, 149.1652292, 601.5, 98, 1.0054668371602626, 1.007573818635637, 0.000058745063142850995, 0.020752793177962303, 0.01869731955230236, 0, 0
613459245.76771, -35.3632585, 149.1652296, 603.345, 98, 1.0012172447904186, 1.0022315101811556, 0.000018738530343398452, 0.02306678518652916, 0.02744065411388874, 0, 0
613459246.775703, -35.3632583, 149.1652296, 604.87, 97, 0.9988159211353682, 1.0060447306158906, 0.003979099914431572, 0.021389106288552284, 0.03443191200494766, 0, 0
613459247.782708, -35.3632582, 149.1652296, 606.3, 97, 0.9958372967525, 0.9995894157102705, 0.005300703924149275, 0.014720424078404903, 0.03883060812950134, 0, 0
613459248.792739, -35.36325805, 149.1652296, 607.88, 97, 0.9986018163417649, 1.0111681363650658, 0.008545421995222569, 0.022659463807940483, 0.03563249483704567, 0, 0
613459249.766701, -35.36325775, 149.1652296, 609.8199999999999, 97, 0.9943372437353418, 0.9980716407152345, 0.0020422569941729307, 0.018543049693107605, 0.04506533592939377, 0, 0
613459250.774482, -35.36325735, 149.16522965000001, 612.175, 96, 1.0005916232685017, 1.0031221261641077, 0.0022292910143733025, 0.02052203379571438, 0.045499082654714584, 0, 0
613459251.780683, -35.36325705, 149.16523, 614.985, 96, 1.0064002623717845, 1.0082742682425254, 0.0033005077857524157, 0.01396290585398674, 0.029467526823282242, 0, 0
613459252.787708, -35.3632569, 149.1652302, 618.165, 96, 1.002022676119112, 1.0043799082020706, 0.00835241936147213, 0.01691543124616146, 0.03277863562107086, 0, 0
613459253.792698, -35.363257, 149.16523015, 621.5250000000001, 96, 1.0020283643896262, 1.0042992581895098, 0.006425083614885807, 0.018122956156730652, 0.03189697489142418, 0, 0
613459254.771725, -35.3632573, 149.16523, 624.8199999999999, 96, 1.0051977894379127, 1.0058334852250645, 0.0035190298222005367, 0.01810510642826557, 0.009572470560669899, 0, 0
613459255.781736, -35.3632576, 149.16522965000001, 627.835, 95, 0.9987718209925037, 1.00045989424864, 0.007320763543248177, 0.011602858081459999, 0.029676496982574463, 0, 0
613459256.792733, -35.363258099999996, 149.1652296, 630.4100000000001, 95, 1.002267930620583, 1.0050955178489256, 0.005590352229773998, 0.018011678010225296, 0.0206046961247921, 0, 0
613459257.774709, -35.3632586, 149.1652296, 632.53, 95, 0.9998074312242317, 1.000582330445626, 0.0049169715493917465, 0.014475894160568714, 0.020951110869646072, 0, 0
613459258.7846808, -35.363259, 149.1652295, 634.2550000000001, 95, 1.0022451029401829, 1.0027487222629605, 0.008920125663280487, 0.011600879952311516, 0.01934042200446129, 0, 0
613459259.7976809, -35.36325925, 149.16522924999998, 635.78, 94, 1.006688684538172, 1.0076333658628023, 0.009002288803458214, 0.010759846307337284, 0.017660044133663177, 0, 0
613459260.7766778, -35.3632596, 149.1652291, 637.3299999999999, 94, 1.0008955629316345, 1.0040692207213604, 0.0034192055463790894, 0.01616695709526539, 0.017050953581929207, 0, 0
613459261.7917309, -35.3632598, 149.16522885, 639.155, 94, 1.0062097272763697, 1.0072020651289393, 0.007846572436392307, 0.01141729298979044, 0.017059821635484695, 0, 0
613459262.777022, -35.36325995, 149.16522874999998, 641.41, 94, 1.0025673243316766, 1.0040707146411552, 0.007926416583359241, 0.008727746084332466, 0.009371515363454819, 0, 0
613459263.78567, -35.363260350000004, 149.1652287, 644.1700000000001, 93, 1.0039378716952165, 1.0052606627139054, 0.006146389991044998, 0.00010147551074624062, 0.027270380407571793, 0, 0
613459264.797839, -35.36326065, 149.1652287, 647.375, 93, 0.9993489203223032, 1.0027008526973535, 0.0047125257551670074, 0.0031738323159515858, 0.01992778480052948, 0, 0
613459265.7726839, -35.36326095, 149.1652287, 650.86, 93, 1.0002666029581087, 1.0033035433008297, 0.0053592585027217865, 0.0004000357585027814, 0.008599063381552696, 0, 0
613459266.7847018, -35.36326095, 149.1652287, 654.3900000000001, 93, 0.9984085499573319, 1.0004983758107755, 0.002692058216780424, 0.0035092979669570923, 0.016652347519993782, 0, 0
613459267.785635, -35.36326065, 149.1652288, 657.73, 92, 1.002880446522886, 1.0066633002151215, 0.0032868413254618645, 0.008460353128612041, 0.01789005473256111, 0, 0
613459268.79673, -35.36326045, 149.1652288, 660.6700000000001, 92, 1.000107006769264, 1.004040835822926, 0.005300253164023161, 0.0013622448313981295, 0.016155987977981567, 0, 0
613459269.8016798, -35.3632602, 149.1652287, 663.115, 92, 1.001862126775587, 1.0031958931335394, 0.006043237168341875, 0.0016799080185592175, 0.016579225659370422, 0, 0
613459270.78666, -35.36326, 149.1652286, 665.095, 92, 1.002268806384934, 1.0062986634195634, 0.005231159273535013, 0.00031493708956986666, 0.02225511707365513, 0, 0
613459271.798133, -35.3632599, 149.16522835, 666.745, 92, 0.998411792758696, 0.9993562928205335, 0.0061509148217737675, 0.00045176001731306314, 0.019375702366232872, 0, 0
613459272.805709, -35.3632598, 149.16522835, 668.255, 91, 1.0026034648651758, 1.0031440574513713, 0.007362728472799063, 0.004381094127893448, 0.018031764775514603, 0, 0
613459273.787633, -35.3632598, 149.1652285, 669.865, 91, 1.0000883481901264, 1.002968593725646, 0.004703078884631395, 0.0012299930676817894, 0.02388307824730873, 0, 0
613459274.7969508, -35.36325975, 149.1652287, 671.7950000000001, 91, 1.0032044337969945, 1.0041339552071726, 0.005691940430551767, 0.0006468235515058041, 0.020380014553666115, 0, 0
613459275.8097088, -35.36325935, 149.1652288, 674.185, 91, 0.9947306667625466, 0.9956796673629527, 0.0044718338176608086, 0.0021210708655416965, 0.01547326985746622, 0, 0
613459276.7926788, -35.363259150000005, 149.1652288, 677.03, 90, 0.9924786810556048, 0.9935119526206013, 0.005214987322688103, 0.004066907800734043, 0.015966687351465225, 0, 0
613459277.801708, -35.36325875, 149.1652288, 680.175, 90, 0.8460503409706203, 0.86997356281671, 0.011667768470942974, 0.008905363269150257, 0.026484783738851547, 0, 0
613459278.78371, -35.363254600000005, 149.1652295, 682.515, 90, 0.9516519895526993, 0.9717515114472424, 0.029975712299346924, 0.00966491736471653, 0.02891971357166767, 0, 0
613459279.794734, -35.3632441, 149.16523089999998, 684.015, 90, 1.0101942792311347, 1.026053604837486, 0.0002148760249838233, 0.01407765131443739, 0.0010682216379791498, 0, 0
613459280.805486, -35.3632274, 149.1652296, 685.165, 90, 1.0378664862015166, 1.0382624908952456, 0.006394554395228624, 0.02786448411643505, 0.00719175860285759, 0, 0
613459281.782963, -35.363202599999994, 149.1652186, 686.1, 89, 1.030134445667569, 1.0329670856324513, 0.04039525240659714, 0.044163040816783905, 0.1650536209344864, 0, 0
613459282.791708, -35.363171449999996, 149.1651973, 686.75, 89, 1.017194647867357, 1.023562406499965, 0.07135593891143799, 0.04812416806817055, 0.09029071033000946, 0, 0
613459283.80373, -35.3631396, 149.16517145, 687.175, 89, 1.0092743771799804, 1.0101296946432177, 0.06717997789382935, 0.021249089390039444, 0.16029392182826996, 0, 0
613459284.813787, -35.3631101, 149.1651489, 687.45, 89, 1.003761533166505, 1.0076710772866313, 0.03694895654916763, 0.02409825287759304, 0.11549055576324463, 0, 0
613459285.796594, -35.36308235, 149.1651345, 687.7049999999999, 88, 0.9942351156884446, 0.9984818476066553, 0.00408798037096858, 0.05337650328874588, 0.0011248881928622723, 0, 0
613459286.807466, -35.3630527, 149.1651282, 688.075, 88, 0.9594122889202152, 0.9698793739429661, 0.008000113070011139, 0.04208051785826683, 0.02357657626271248, 0, 0
613459287.789708, -35.363018600000004, 149.16512684999998, 688.545, 88, 1.0012786917493888, 1.0137879462688437, 0.047637928277254105, 0.009636932983994484, 0.06637993454933167, 0, 0
613459288.800714, -35.3629804, 149.1651254, 689.345, 88, 1.0109059971939747, 1.0150970396962056, 0.028203917667269707, 0.0038544696290045977, 0.06471093744039536, 0, 0
613459289.806583, -35.36293795, 149.1651192, 690.6600000000001, 88, 1.0155485267618307, 1.0174694098595791, 0.0007762261666357517, 0.02484334260225296, 0.04748186469078064, 0, 0
613459290.7885768, -35.362892650000006, 149.1651062, 692.38, 87, 1.0091357914848333, 1.0116763316397195, 0.016299258917570114, 0.046262528747320175, 0.012139138765633106, 0, 0
613459291.7957768, -35.3628474, 149.16508705, 694.24, 87, 1.007668883232685, 1.013274395215827, 0.036325786262750626, 0.04016118124127388, 0.01245456375181675, 0, 0
613459292.799703, -35.36280475, 149.16506485, 695.97, 87, 1.0090591745769872, 1.0111997824366854, 0.04565427079796791, 0.021087072789669037, 0.05201674997806549, 0, 0
613459293.811728, -35.36276565, 149.1650439, 697.395, 87, 1.0070201401531682, 1.0095573287337376, 0.0323798730969429, 0.006540213245898485, 0.03831135854125023, 0, 0
613459294.795671, -35.362728950000005, 149.1650275, 698.375, 87, 1.0044817364771792, 1.0080089285318856, 0.001308890525251627, 0.017136987298727036, 0.009063980542123318, 0, 0
613459295.80371, -35.362692550000006, 149.16501655000002, 698.905, 86, 0.9866611996695545, 0.9910403624474635, 0.016375746577978134, 0.020872529596090317, 0.0018278926145285368, 0, 0
613459296.816702, -35.3626548, 149.16500904999998, 699, 86, 1.0009155666145009, 1.0010844120252798, 0.02254708856344223, 0.008203709498047829, 0.03556894510984421, 0, 0
613459297.791736, -35.3626152, 149.16500205, 698.905, 86, 1.0057570509992244, 1.0062613974509804, 0.016780823469161987, 0.004225317854434252, 0.035243920981884, 0, 0
613459298.8057148, -35.362573499999996, 149.16499285, 698.9449999999999, 86, 1.0102343565763832, 1.0122455235761727, 0.007962191477417946, 0.008258545771241188, 0.02318790927529335, 0, 0
613459299.8167078, -35.3625303, 149.1649804, 699.33, 86, 1.0032844465117896, 1.0038495903271565, 0.0004484490491449833, 0.016363361850380898, 0.014295874163508415, 0, 0
613459300.791321, -35.3624865, 149.16496475, 700.185, 85, 1.0007115467908871, 1.0013440967020277, 0.007317887619137764, 0.019910145550966263, 0.0011876106727868319, 0, 0
613459301.798728, -35.362443150000004, 149.16494695, 701.5250000000001, 85, 1.0038914201684175, 1.00401992012111, 0.016043096780776978, 0.01957343891263008, 0.013867922127246857, 0, 0
613459302.806701, -35.3624007, 149.1649286, 703.28, 85, 0.9980973904735375, 0.9984122395083105, 0.012323105707764626, 0.008924219757318497, 0.025346945971250534, 0, 0
613459303.805709, -35.3623595, 149.16491125, 705.245, 85, 1.0004114584977652, 1.0019650692514186, 0.007774475496262312, 0.00031089974800124764, 0.02213464304804802, 0, 0
613459304.814636, -35.362318450000004, 149.1648959, 707.215, 85, 1.00654226499906, 1.008322369086395, 0.0018391176126897335, 0.00019730301573872566, 0.013578156940639019, 0, 0
613459305.796681, -35.36227745, 149.16488214999998, 708.95, 84, 0.9962699112026994, 0.9991446341746524, 0.010589933022856712, 0.005520966835319996, 0.006650163792073727, 0, 0
613459306.803464, -35.362235749999996, 149.16486945, 710.24, 84, 1.0054563443235094, 1.0090673912083374, 0.003344150260090828, 0.001737531740218401, 0.002749613020569086, 0, 0
613459307.8157358, -35.3621934, 149.16485655, 711.03, 84, 0.9967355091794584, 0.9973053694831889, 0.006791883613914251, 0.006090366747230291, 0.004921633750200272, 0, 0
613459308.823732, -35.3621505, 149.16484285, 711.4000000000001, 84, 0.9995353249982819, 0.9999014951483971, 0.0018218779005110264, 0.007279681507498026, 0.001405292539857328, 0, 0
613459309.804595, -35.36210715, 149.164828, 711.505, 84, 1.001270225610362, 1.0066027021620794, 0.000671302666887641, 0.008263028226792812, 0.0073033226653933525, 0, 0
613459310.8197079, -35.362063899999995, 149.1648122, 711.56, 83, 0.9992841401063352, 1.0003829266835775, 0.005468157120049, 0.009302140213549137, 0.010272839106619358, 0, 0
613459311.825734, -35.362020799999996, 149.16479585000002, 711.81, 83, 1.000770684477505, 1.0020104789871211, 0.007577624171972275, 0.009144741110503674, 0.014581850729882717, 0, 0
613459312.801707, -35.3619782, 149.16477924999998, 712.435, 83, 0.9984396336513741, 0.998985485380043, 0.0062622143886983395, 0.00565338833257556, 0.018396718427538872, 0, 0
613459313.800701, -35.3619359, 149.16476315, 713.55, 83, 1.0002037155190573, 1.0003694317600873, 0.0008163549937307835, 0.00729489978402853, 0.018109405413269997, 0, 0
613459314.8044739, -35.3618936, 149.16474775, 715.115, 83, 1.0033247501535936, 1.005433239951813, 0.004030363634228706, 0.003781300038099289, 0.024886609986424446, 0, 0
613459315.807709, -35.36185115, 149.1647329, 717.02, 82, 1.0023504817148492, 1.0033563673989416, 0.0021751129534095526, 0.005356092471629381, 0.007954869419336319, 0, 0
613459316.815692, -35.3618086, 149.16471835, 719.025, 82, 1.0014850656253136, 1.0082425303467415, 0.0012785637518391013, 0.005571356508880854, 0.017816634848713875, 0, 0
613459317.8256888, -35.3617659, 149.16470364999998, 720.91, 82, 0.9999066087645083, 1.0022030732341625, 0.0016889021499082446, 0.005784078035503626, 0.00897449441254139, 0, 0
613459318.80172, -35.361723, 149.1646887, 722.455, 82, 1.0036282182305172, 1.0050064676408803, 0.00012463051825761795, 0.007103410549461842, 0.019061105325818062, 0, 0
613459319.812676, -35.361679949999996, 149.16467315, 723.5350000000001, 82, 1.0024636538431242, 1.0037375154889847, 0.0013701370917260647, 0.006598878651857376, 0.011448223143815994, 0, 0
613459320.817708, -35.36163705, 149.16465735, 724.14, 81, 0.9985808137996314, 1.0001164932146653, 0.008059713989496231, 0.009921243414282799, 0.021598363295197487, 0, 0
613459321.822732, -35.3615942, 149.1646412, 724.37, 81, 1.0033663641425865, 1.0045660754773675, 0.004831524565815926, 0.007459261454641819, 0.013568437658250332, 0, 0
613459322.806704, -35.3615515, 149.16462525, 724.4300000000001, 81, 1.0041297444987505, 1.009125363867146, 0.005491878837347031, 0.0030035641975700855, 0.019551806151866913, 0, 0
613459323.808709, -35.361509, 149.16460949999998, 724.5550000000001, 81, 1.0026118735357676, 1.0040014940227928, 0.0017978234682232141, 0.005375934764742851, 0.015007615089416504, 0, 0
613459324.823494, -35.3614667, 149.1645941, 724.9449999999999, 81, 0.9958052352438694, 0.9970025075194144, 0.0026947823353111744, 0.0004457889008335769, 0.016964860260486603, 0, 0
613459325.8317199, -35.3614243, 149.16457889999998, 725.7850000000001, 80, 1.0000346951991013, 1.0003639337761034, 0.0021498026326298714, 0.005161921959370375, 0.018425730988383293, 0, 0
613459326.81367, -35.3613818, 149.1645638, 727.115, 80, 1.0041781660216966, 1.0052785683580447, 0.004596995189785957, 0.0024625323712825775, 0.006628798320889473, 0, 0
613459327.825682, -35.361339349999994, 149.16454865, 728.865, 80, 1.0000673897245385, 1.006208725861588, 0.003717769868671894, 0.004761886317282915, 0.016697926446795464, 0, 0
613459328.8036819, -35.3612968, 149.16453330000002, 730.8399999999999, 80, 0.9979398325982232, 1.001693565917242, 0.007108267862349749, 0.007592241745442152, 0.0093693183735013, 0, 0
613459329.813683, -35.36125414999999, 149.16451775000002, 732.845, 80, 1.0029735289194723, 1.0075122828035397, 0.004701120778918266, 0.009605973958969116, 0.015204107388854027, 0, 0
613459330.8276808, -35.3612116, 149.16450215, 734.62, 79, 1.0009674814804033, 1.006221148654708, 0.0023897369392216206, 0.005674941465258598, 0.014819242060184479, 0, 0
613459331.809717, -35.36116935, 149.16448635, 735.995, 79, 0.9985208509649666, 0.9999734996488656, 0.005016661714762449, 0.006052890792489052, 0.013558920472860336, 0, 0
613459333.822142, -35.3610851, 149.1644549, 737.345, 79, 0.9960565715961257, 0.9980075150017659, 0.0019267041934654117, 0.004885462578386068, 0.015261244028806686, 0, 0
613459335.83316, -35.36100155, 149.16442445, 737.545, 78, 0.9939238157309507, 0.9972326709449505, 0.001877572387456894, 0.007355795241892338, 0.016204362735152245, 0, 0
613459337.8167028, -35.360917900000004, 149.16439455, 738.365, 78, 1.0013651165509208, 1.0025497493890265, 0.006375460885465145, 0.0032580848783254623, 0.012661546468734741, 0, 0
613459339.825492, -35.360833850000006, 149.1643643, 740.9649999999999, 77, 1.0009789856173632, 1.0012442259508916, 0.002747619291767478, 0.005835597403347492, 0.01949607953429222, 0, 0
613459341.824679, -35.3607502, 149.16433325, 744.865, 77, 1.001033625146288, 1.0023302848861746, 0.0018728295108303428, 0.004570747725665569, 0.01181003637611866, 0, 0
613459343.8196259, -35.3606669, 149.16430255, 748.4200000000001, 77, 1.0016411200451958, 1.004203664601957, 0.004488818347454071, 0.005233000963926315, 0.004170392639935017, 0, 0
613459345.8387449, -35.3605843, 149.16427265, 750.26, 76, 0.9969784529690905, 0.9999724996218646, 0.00699894642457366, 0.0015986203216016293, 0.0049720765091478825, 0, 0
613459347.818639, -35.36050185, 149.1642431, 750.585, 76, 0.9968479585365173, 1.00122375121648, 0.0016755497781559825, 0.0026179314590990543, 0.015525930561125278, 0, 0
613459349.8357, -35.36041885, 149.16421355, 751.015, 75, 1.002227356539748, 1.0033787918827066, 0.0015350404428318143, 0.00428335415199399, 0.008041340857744217, 0, 0
613459351.8285968, -35.36033605, 149.1641832, 753.04, 75, 1.0025357092581315, 1.006491927439063, 0.007916868664324284, 0.02001230977475643, 0.01539114210754633, 0, 0
613459353.815702, -35.36025365, 149.16415275, 756.665, 75, 1.006325447216533, 1.0066325049391163, 0.0052626365795731544, 0.0064667146652936935, 0.0023425843100994825, 0, 0
613459355.8394089, -35.3601716, 149.16412294999998, 760.425, 74, 0.9991285273704631, 1.0004269088744064, 0.00606980174779892, 0.001588041428476572, 0.004815252497792244, 0, 0
613459357.828703, -35.36008935, 149.164094, 762.745, 74, 0.9974326804875907, 0.9993162662540823, 0.0007254377705976367, 0.004829701501876116, 0.006645563058555126, 0, 0
613459359.818352, -35.36000715, 149.16406454999998, 763.345, 73, 0.9968521585420042, 0.9994548514065055, 0.005129063036292791, 0.0073294732719659805, 0.011257737874984741, 0, 0
613459361.8397079, -35.3599248, 149.1640344, 763.5450000000001, 73, 0.9951939903178688, 0.9975224308254927, 0.0059950025752186775, 0.005471797194331884, 0.008632383309304714, 0, 0
613459363.844568, -35.3598431, 149.16400405000002, 765, 73, 1.0017060941693745, 1.0023392639221511, 0.006198733113706112, 0.00907297246158123, 0.007927197962999344, 0, 0
613459365.819732, -35.35976215, 149.16397485, 768.25, 72, 0.9984572117557015, 1.0013201286301998, 0.0023336082231253386, 0.0007653639186173677, 0.012532837688922882, 0, 0
613459367.82876, -35.3596811, 149.16394655, 772.13, 72, 1.0053579461967734, 1.0069071456693512, 0.00464903237298131, 0.008242201060056686, 0.005458664149045944, 0, 0
613459369.8170428, -35.359599349999996, 149.1639177, 774.9200000000001, 71, 1.0017312612815577, 1.0027212972705826, 0.0037174997851252556, 0.010495939292013645, 0.005553971976041794, 0, 0
613459371.8246958, -35.359517100000005, 149.1638875, 775.9100000000001, 71, 0.9971674815501173, 1.00164115330791, 0.009026261046528816, 0.00878830999135971, 0.011590667068958282, 0, 0
613459373.826726, -35.3594392, 149.16385465000002, 775.39, 71, 0.9961368836904625, 1.0083560878975244, 0.0913904681801796, 0.09737128019332886, 0.15603917837142944, 0, 0
613459375.834673, -35.3594033, 149.16381745, 774.69, 70, 1.040081703559008, 1.0486286282569248, 0.10389591008424759, 0.0199134424328804, 1.274659276008606, 0, 0
613459377.827709, -35.359421, 149.163837, 775.81, 70, 1.0351535796793632, 1.038836849558197, 0.13132953643798828, 0.08222486823797226, 0.542730450630188, 0, 0
613459379.8467, -35.359404, 149.16389199999998, 777.9300000000001, 69, 0.9711406989461588, 0.9768628358167795, 0.12039096653461456, 0.07138646394014359, 0.7639862895011902, 0, 0
613459381.841778, -35.35938565, 149.1638441, 777.665, 69, 1.077406316951408, 1.0810296018148624, 0.07275649160146713, 0.08178061991930008, 0.266250342130661, 0, 0
613459383.8267028, -35.3594485, 149.16378075, 775.835, 68, 1.0379610253475464, 1.045131092255895, 0.0912245586514473, 0.09718886017799377, 0.30230969190597534, 0, 0
613459385.8367128, -35.359512800000005, 149.16374605, 774.3, 68, 1.0080444134964441, 1.0087229550277916, 0.02963358536362648, 0.03431050851941109, 0.1628665179014206, 0, 0
613459387.837738, -35.3595608, 149.16369795, 773.59, 67, 1.0077473361152922, 1.009266069973622, 0.009844702668488026, 0.006468614097684622, 0.04463249444961548, 0, 0
613459389.8217058, -35.3596062, 149.1636379, 774.66, 67, 1.0163798502528472, 1.0163798502528472, 0.007564193569123745, 0.008383413776755333, 0.024774707853794098, 0, 0
613459391.828328, -35.3596567, 149.163566, 777.82, 66, 1.0114504436698815, 1.0114504436698815, 0.0010374183766543865, 0.0005717440508306026, 0.029572471976280212, 0, 0
613459393.83771, -35.359717700000004, 149.16348775, 781.8699999999999, 66, 1.0031972647927065, 1.0036951728488086, 0.00396706024184823, 0.004490714054554701, 0.007601680234074593, 0, 0
613459395.820693, -35.3597728, 149.1634234, 783.94, 65, 1.0012781831239508, 1.0012781831239508, 0.0016088425181806087, 0.006120872683823109, 0.0008729456458240747, 0, 0
613459397.833735, -35.3598451, 149.16334369999998, 784.52, 65, 0.9960937830773691, 1.000640794691082, 0.002356800017878413, 0.0019289508927613497, 0.0020413948222994804, 0, 0
613459399.826303, -35.3599063, 149.163278, 784.6, 64, 0.9955370409984754, 0.9955370409984754, 0.013270778581500053, 0.014051678590476513, 0.008669082075357437, 0, 0
613459401.835708, -35.359982200000005, 149.16319805, 786.13, 64, 1.0013285906940281, 1.0053352674605622, 0.0021799192763864994, 0.0023770714178681374, 0.01826603151857853, 0, 0
613459403.847713, -35.36005135, 149.1631257, 789.2049999999999, 63, 0.9981981157260751, 0.9983456315324869, 0.008363978937268257, 0.0012524784542620182, 0.008477787487208843, 0, 0
613459405.847307, -35.360120300000005, 149.16305384999998, 792.61, 63, 1.0010382064891152, 1.0011338571839432, 0.01214669644832611, 0.023308653384447098, 0.0131162628531456, 0, 0
613459407.8257349, -35.360182, 149.1629896, 794.55, 62, 1.0038396286260072, 1.0038396286260072, 0.0061156232841312885, 0.0025506012607365847, 0.012975526042282581, 0, 0
613459409.8397079, -35.3602572, 149.16291085, 794.89, 62, 0.9990251913466628, 1.000105494435462, 0.009630941785871983, 0.014238733798265457, 0.013998620212078094, 0, 0
613459411.8297088, -35.3603182, 149.1628462, 794.48, 61, 0.9984738354108234, 0.9984738354108234, 0.003905893536284566, 0.003198795486241579, 0.015337090007960796, 0, 0
613459413.838712, -35.36038373333333, 149.16277676666667, 794.9699999999999, 60, 1.00228849279953, 1.0066290279939278, 0.00394213292747736, 0.003502476727589965, 0.003996958024799824, 0, 0
613459415.827441, -35.3604538, 149.1627026, 797.32, 60, 0.9981598068445754, 0.9981598068445754, 0.004046884831041098, 0.010903856717050076, 0.011691254563629627, 0, 0
613459417.8376858, -35.3605209, 149.1626307, 800.66, 60, 0.9999189967192342, 0.9999189967192342, 0.002844898495823145, 0.003998777829110622, 0.007891031913459301, 0, 0
613459419.819263, -35.3605881, 149.1625589, 803.29, 59, 1.0015877395415742, 1.0015877395415742, 0.008874695748090744, 0.002431575208902359, 0.013296518474817276, 0, 0
613459421.843719, -35.36066185, 149.16248009999998, 804.0799999999999, 58, 0.9978478258762595, 1.000800179856099, 0.013136714696884155, 0.012469050474464893, 0.008695939555764198, 0, 0
613459423.821158, -35.3607225, 149.1624156, 803.66, 58, 1.001279681208003, 1.001279681208003, 0.013995788060128689, 0.01024853065609932, 0.010865462943911552, 0, 0
613459425.83723, -35.36079, 149.1623436, 803.71, 57, 1.0015443075570845, 1.0015443075570845, 0.014143580570816994, 0.016671855002641678, 0.01240163017064333, 0, 0
613459427.598953, -35.3608572, 149.1622717, 805.5, 57, 1.0039347588364496, 1.0039347588364496, 0.009865280240774155, 0.00020002666860818863, 0.00815922487527132, 1, 0
613459429.831403, -35.3609244, 149.1621998, 808.72, 56, 0.9915346690862604, 0.9915346690862604, 0.0010494396556168795, 0.0014731788542121649, 0.0056386408396065235, 0, 0
613459431.836228, -35.360981300000006, 149.16213879999998, 811.335, 56, 0.9997869701285143, 1.0019116727536415, 0.0012975644785910845, 0.00169847602955997, 0.008256003260612488, 0, 0
613459433.59975, -35.361048100000005, 149.16206695, 812.9549999999999, 55, 0.9986233136279168, 1.0032576937158268, 0.0002961987629532814, 0.001012592576444149, 0.004315413534641266, 0, 0
613459435.8362088, -35.3611251, 149.1619844, 812.82, 55, 0.9973464794142505, 0.9973464794142505, 0.005333279725164175, 0.0033410871401429176, 0.003220414509996772, 0, 0
613459437.598388, -35.36118215, 149.16192345, 812.545, 54, 1.0036798525260462, 1.0060785257622786, 0.017318861559033394, 0.011058557778596878, 0.004576544743031263, 0, 0
613459439.606675, -35.3612492, 149.161852, 813.53, 54, 0.998915893497678, 0.9991101040425925, 0.030233262106776237, 0.013426628895103931, 0.002871512668207288, 0, 0
613459441.602676, -35.36131625, 149.16178029999998, 816.255, 53, 1.0008746045470405, 1.003617955200085, 0.007559772115200758, 0.009074104949831963, 0.0028568715788424015, 0, 0
613459443.604677, -35.3613831, 149.16170849999997, 819.55, 53, 1.0065923400645063, 1.0118231070696102, 0.005408277735114098, 0.0014139486011117697, 0.003964144736528397, 0, 0
613459445.608675, -35.36144985, 149.16163665, 821.6949999999999, 52, 0.9970908511723291, 0.9984452914406478, 0.0020534119103103876, 0.0005080746486783028, 0.0019805699121207, 0, 0
613459447.6046019, -35.3615164, 149.16156504999998, 822.0350000000001, 52, 0.9970406712835918, 0.9992542219075183, 0.02458849549293518, 0.015488296747207642, 0.0007310535293072462, 0, 0
613459449.6086018, -35.36158315, 149.16149385, 821.5699999999999, 51, 0.996093667577683, 1.0024894014402348, 0.01447833888232708, 0.010678284801542759, 0.0015475377440452576, 0, 0
613459451.612604, -35.3616499, 149.16142245, 822.04, 51, 1.0003239564344217, 1.0033209855275629, 0.02957827039062977, 0.010506569407880306, 0.00035428861156105995, 0, 0
613459453.607703, -35.3617165, 149.16135079999998, 824.325, 50, 1.0012635229331046, 1.0062991602898217, 0.017391230911016464, 0.009499633684754372, 0.006428524851799011, 0, 0
613459455.599709, -35.36178335, 149.1612793, 827.64, 50, 0.9968907201474151, 1.0029646055569459, 0.010757720097899437, 0.0035514659248292446, 0.0009197287727147341, 0, 0
613459457.613157, -35.3618601, 149.1611967, 830.51, 49, 0.999328274392354, 0.999328274392354, 0.005308729596436024, 0.0029997152741998434, 0.0009250063449144363, 1, 0
613459459.840703, -35.361916699999995, 149.1611357, 831.065, 49, 1.0061292543087421, 1.0129427427056281, 0.0068735405802726746, 0.0027747757267206907, 0.008017688989639282, 1, 0
613459461.841722, -35.3619832, 149.16106424999998, 830.655, 48, 0.9973404577160089, 0.9974472417125629, 0.004339931067079306, 0.0028121271170675755, 0.0015471272636204958, 0, 0
613459463.604737, -35.3620497, 149.1609933, 830.705, 48, 1.0008323540678856, 1.0034012158653187, 0.015488955192267895, 0.006304309703409672, 0.0035383147187530994, 0, 0
613459465.6196818, -35.3621265, 149.1609114, 832.89, 47, 0.9970232235090191, 1.0016266769610322, 0.017862243577837944, 0.0015834416262805462, 0.0009734407067298889, 0, 1
613459467.595423, -35.3621834, 149.16085049999998, 835.635, 47, 1.0046512368619007, 1.0085102875033056, 0.00752627570182085, 0.003237199503928423, 0.00002270890399813652, 0, 0
613459469.610996, -35.3622404, 149.1607895, 838.25, 46, 1.000410349743491, 1.005570982079336, 0.002596269128844142, 0.0027321707457304, 0.00782833807170391, 0, 1
613459471.601709, -35.3623173, 149.16070685, 839.9300000000001, 45, 0.9983063019885061, 0.9990325320028373, 0.0012954603880643845, 0.0018530921079218388, 0.006146597675979137, 0, 0
613459473.615515, -35.362384000000006, 149.160635, 839.71, 45, 1.0046007939480277, 1.0072924103754581, 0.0017178873531520367, 0.0012004096060991287, 0.0009583365172147751, 0, 1
613459475.622727, -35.36245045, 149.1605632, 839.4449999999999, 44, 0.9979394785713316, 1.000640794691082, 0.004719981923699379, 0.004847334697842598, 0.0018719406798481941, 0, 0
613459477.84809, -35.3625268, 149.1604808, 841.01, 44, 1.0064172878380524, 1.008073410025282, 0.01913696900010109, 0.008658632636070251, 0.0016951727448031306, 0, 1
613459479.608681, -35.36258335, 149.16042019999998, 843.5699999999999, 43, 1.0020926968288513, 1.0057295859225779, 0.007333161309361458, 0.002916723722591996, 0.00043563637882471085, 0, 0
613459481.6010919, -35.36265015, 149.16034904999998, 846.8199999999999, 43, 0.9922392489711861, 0.9939044219642048, 0.027460338547825813, 0.013212170451879501, 0.01248287595808506, 0, 0
613459483.605718, -35.3627269, 149.160267, 848.81, 42, 0.9997436467874565, 1.0015158510977247, 0.00878999289125204, 0.011345110833644867, 0.005846301093697548, 0, 1
613459485.606693, -35.36278395, 149.16020609999998, 848.77, 42, 0.9944449538299069, 1.0006283026179101, 0.007048341445624828, 0.0066542294807732105, 0.008643722161650658, 0, 0
613459487.606659, -35.3628509, 149.16013425, 848.37, 41, 0.9983043273478756, 1.0027168094731433, 0.005987162701785564, 0.0018027955666184425, 0.00024799909442663193, 1, 0
613459489.617255, -35.362917499999995, 149.16006249999998, 849.135, 41, 0.9986209369473429, 1.0055292138968415, 0.021442469209432602, 0.007786732167005539, 0.001379447290673852, 1, 0
613459491.6287038, -35.362974, 149.1600015, 851.16, 40, 1.0038615970695248, 1.0082083118086262, 0.02245209738612175, 0.016969067975878716, 0.004846618510782719, 1, 1
613459493.656683, -35.36305045, 149.15991939999998, 854.985, 40, 1.002912054008677, 1.0042947774433562, 0.020633094012737274, 0.005256711505353451, 0.001753907185047865, 0, 0
613459495.629701, -35.3631069, 149.1598587, 857.14, 39, 0.9889561698363896, 0.9893967859256467, 0.032388269901275635, 0.014755003154277802, 0.005243041552603245, 0, 1
613459497.6097019, -35.3631935, 149.1597659, 857.87, 39, 1.0026708911706423, 1.0104865164859944, 0.03332679346203804, 0.006434891372919083, 0.0039108083583414555, 0, 1
613459499.6187289, -35.3632501, 149.15970529999998, 857.4449999999999, 38, 0.9964999892358541, 1.0001429897769618, 0.03124134987592697, 0.007185900583863258, 0.007026473060250282, 0, 0
613459501.63273, -35.36331665, 149.15963395, 857.6949999999999, 38, 1.0023390269858852, 1.008460708208307, 0.030551789328455925, 0.00176294706761837, 0.0028837400022894144, 0, 0
613459503.647723, -35.3633831, 149.15956265, 859.745, 37, 0.9949649775861413, 0.9957976702121772, 0.004238903988152742, 0.0014990582130849361, 0.000574114266782999, 0, 1
613459505.610718, -35.3634494, 149.15949154999998, 863.04, 37, 1.0044262987895958, 1.005570982079336, 0.0021417178213596344, 0.00701310345903039, 0.009254895150661469, 0, 0
613459507.61871, -35.3635056, 149.1594312, 865.5, 36, 1.0047457999364031, 1.0124514803189337, 0.004594950936734676, 0.002062419895082712, 0.0005836328491568565, 0, 1
613459509.6306999, -35.3635816, 149.15934959999998, 866.86, 36, 1.0033001732000266, 1.0089801781997505, 0.0044298856519162655, 0.005569535307586193, 0.0024214431177824736, 0, 0
613459511.619701, -35.3636476, 149.15927855, 866.49, 35, 1.0042164008545194, 1.0069404153176096, 0.007737722247838974, 0.0024845637381076813, 0.011345937848091125, 0, 0
613459513.6357338, -35.36371345, 149.15920745, 866.37, 35, 0.9947158802374008, 0.9993868120002385, 0.005516252480447292, 0.003118363209068775, 0.009331592358648777, 0, 1
613459515.7780159, -35.3637891, 149.1591258, 868.27, 34, 1.0062275893032742, 1.0064238669665977, 0.006086328998208046, 0.0012620696797966957, 0.00099704519379884, 0, 1
613459517.640322, -35.3638433, 149.1590696, 870.9, 34, 1.0344433897884566, 1.0450440182116731, 0.07679681479930878, 0.058202896267175674, 0.3218933641910553, 1, 1
613459519.6351829, -35.3639057, 149.1590539, 874.85, 33, 1.0150472802297998, 1.0172875699623976, 0.029005009680986404, 0.0004830386023968458, 0.03724011778831482, 0, 1
613459521.6407008, -35.363942, 149.1590776, 876.55, 33, 0.9963467139501638, 0.9988418293203384, 0.030486514791846275, 0.02139318734407425, 0.046288710087537766, 0, 1
613459523.739584, -35.3639914, 149.159112, 877.03, 32, 1.003343594579202, 1.0048034633698275, 0.022825121879577637, 0.00305014755576849, 0.011776363477110863, 0, 1
613459528.748582, -35.3642115, 149.1592107, 878.85, 31, 1.0034626717580974, 1.0079533719374125, 0.010553644970059395, 0.02312597632408142, 0.04013198986649513, 0, 1
613459533.7476828, -35.3643552, 149.1592675, 884.98, 29, 0.9923232046959389, 0.9960858396744731, 0.009718118235468864, 0.0038463498931378126, 0.014757994562387466, 0, 1
613459538.7396798, -35.364569, 149.1594065, 888.18, 28, 1.0079414240712912, 1.0104083332989688, 0.01298848632723093, 0.0060192677192389965, 0.013467498123645782, 0, 1
613459543.728682, -35.3647889, 149.159539, 893.3, 27, 1.002466520761113, 1.004558111808371, 0.004271291196346283, 0.005706321448087692, 0.008176535367965698, 0, 1
613459548.7395809, -35.3648685, 149.1595826, 896.48, 25, 1.000508926162903, 1.0011323588816816, 0.007617061026394367, 0.007397008128464222, 0.004957970697432756, 0, 1
613459553.73071, -35.3648685, 149.1595826, 896.48, 24, 1.0448190857594486, 1.0963562377256764, 0.002383725019171834, 2.0419304370880127, 0.31723514199256897, 0, 1
613459558.73168, -35.3648685, 149.1595826, 896.48, 23, 0.9033080468867789, 0.9144468273223982, 0.001051535364240408, 0.0034466153010725975, 0.008715521544218063, 0, 1
613459563.7366638, -35.3648685, 149.1595826, 896.48, 22, 1.0592984289545095, 1.0690112253854027, 0.004340976011008024, 0.005297639407217503, 0.04496888443827629, 0, 1
613459568.763666, -35.3648685, 149.1595826, 896.48, 21, 0.9945884869588956, 1.0011643221769342, 0.001599682029336691, 0.0026280407328158617, 0.013225783593952656, 0, 1
613459573.7650309, -35.3648685, 149.1595826, 896.48, 20, 0.9962197618115665, 0.9973088789337032, 0.0009783487766981125, 0.0002002837136387825, 0.001322026364505291, 0, 1
613459578.767019, -35.3648685, 149.1595826, 896.48, 19, 0.9974123125381961, 0.9978351567268012, 0.0006169225089251995, 0.0008717526216059923, 0.0056421575136482716, 0, 1
613459583.759021, -35.3629564, 149.15938219999998, 869.69, 18, 1.0014233674507886, 1.002919737566272, 0.00012151477858424187, 0.00020191888324916363, 0.006533742416650057, 0, 0
613459588.7447898, -35.36252105, 149.15930444999998, 858.76, 18, 0.9992305452629363, 1.003682220625632, 0.0007478599436581135, 0.001261518569663167, 0.004262731410562992, 0, 0
613459593.768707, -35.3620904, 149.1592334, 853.485, 17, 1.0037266688116202, 1.0056694287886054, 0.0008264780044555664, 0.001153017277829349, 0.01769563928246498, 0, 0
613459598.748703, -35.3616658, 149.159168, 846.28, 16, 1.0011801642790639, 1.0017080412974628, 0.0012708057183772326, 0.00047881901264190674, 0.012740716338157654, 0, 0
613459603.7775528, -35.3612467, 149.15910680000002, 836.725, 15, 0.9975993401466722, 0.9996134252799929, 0.002394129754975438, 0.0009407487232238054, 0.013626055791974068, 0, 0
613459608.760769, -35.360830750000005, 149.15904625000002, 833.145, 14, 0.9982245613003256, 1.0017210190467203, 0.00031210528686642647, 0.0003961652982980013, 0.005403014365583658, 0, 0
613459613.76574, -35.36041455, 149.15898464999998, 822.47, 13, 1.000796308012015, 1.0027327659950083, 0.00016119214706122875, 0.0019142299424856901, 0.01815839670598507, 0, 0
613459618.754701, -35.3599966, 149.15891865, 817.21, 12, 1.0009419284774221, 1.003815222040391, 0.001151136588305235, 0.0014077313244342804, 0.008109593763947487, 0, 0
613459623.775666, -35.359574550000005, 149.1588479, 810.37, 11, 1.002425239227922, 1.0027990825683877, 0.0003790224436670542, 0.0005351013969630003, 0.008017663843929768, 0, 0
613459628.759702, -35.3591482, 149.15877319999998, 800.625, 10, 1.0013150010591199, 1.0018333194698605, 0.0003132300917059183, 0.00010040565393865108, 0.0020726509392261505, 0, 0
613459633.7713559, -35.35871835, 149.15869655, 797.13, 9, 1.0024519837351338, 1.0050054726219155, 0.0001453617587685585, 0.00021313875913619995, 0.001196509343571961, 0, 0
613459638.775713, -35.3582872, 149.15861985, 786.58, 8, 0.9993980151963404, 0.9997254623145296, 0.0025866918731480837, 0.0008658908773213625, 0.013331184163689613, 0, 0
613459643.770731, -35.3578561, 149.1585431, 781.15, 7, 0.9993658985541204, 1.0010394597617018, 0.0004250111524015665, 0.001225555781275034, 0.010690108872950077, 0, 0
613459648.779706, -35.3574256, 149.15846695, 774.575, 6, 0.9968489829164686, 0.9979002956207599, 0.0012740031816065311, 0.0011193847749382257, 0.0019508174154907465, 0, 0
613459653.791709, -35.35699785, 149.15839425000001, 764.685, 5, 1.0018763625979321, 1.002744733219776, 0.0012923958711326122, 0.0010099108330905437, 0.013168365694582462, 0, 0
613459658.791833, -35.3565725, 149.15832369999998, 761.255, 4, 1.0007951835888071, 1.0008176657113923, 0.0014942879788577557, 0.0011205167975276709, 0.0030497361440211535, 0, 0
613459663.787709, -35.35614935, 149.15825515, 750.84, 3, 1.0012215343083204, 1.0057425117792325, 0.0011342483339831233, 0.0010746303014457226, 0.017830032855272293, 0, 0
613459668.7877069, -35.3557281, 149.15818654999998, 745.175, 3, 0.9980913388053504, 0.9985148972348885, 0.0009503450710326433, 0.0006511227693408728, 0.01637759618461132, 0, 0
613459673.78771, -35.355306799999994, 149.15811789999998, 738.8699999999999, 2, 1.0003166159827614, 1.0007262362904252, 0.0016553704626858234, 0.001054701628163457, 0.012191757559776306, 0, 0
613459678.807829, -35.3548856, 149.15804930000002, 728.8399999999999, 1, 1.003810830595868, 1.0057643859274397, 0.000112118199467659, 0.0008537571411579847, 0.013372397050261497, 0, 0
613459683.7947528, -35.35446415, 149.15798080000002, 725.4449999999999, 0, 1.0029165914844773, 1.00486864813268, 0.000592357711866498, 0.0014148973859846592, 0.01276819035410881, 0, 0
613459688.7845728, -35.35403985, 149.15790885, 715.1800000000001, 0, 0.9998344710170035, 1.0008496390567367, 0.0015567613299936056, 0.0008348994888365269, 0.020464712753891945, 0, 0
613459693.8019319, -35.3536147, 149.15783625, 709.275, 0, 0.9998771053315203, 1.0018198440837551, 0.0015612568240612745, 0.001148867653682828, 0.02350425347685814, 0, 0
613459698.7907078, -35.3531868, 149.1577636, 703.2349999999999, 0, 0.9973120885641122, 0.998923921027022, 0.0004098551580682397, 0.0028123047668486834, 0.006074617616832256, 0, 0
613459703.800557, -35.352759, 149.15769095000002, 693.0450000000001, 0, 1.0018381527363742, 1.004721852056578, 0.0012749657034873962, 0.0013398651499301195, 0.007464519701898098, 0, 0
613459708.805703, -35.3523312, 149.15761835, 689.6600000000001, 0, 1.0022859664088983, 1.002870380458013, 0.0006845049792900681, 0.000009061186574399471, 0.0034067058004438877, 0, 0
613459713.81672, -35.35190325, 149.15754564999997, 679.5450000000001, 0, 1.0007685049160544, 1.0027432373244907, 0.0014575334498658776, 0.000312171527184546, 0.00028047128580510616, 0, 0
613459718.800729, -35.3514755, 149.1574731, 673.4, 0, 0.9952472791817195, 0.9967813200496888, 0.0020924853160977364, 0.0007715033134445548, 0.0017506845761090517, 0, 0
613459723.8014839, -35.35104765, 149.1574014, 667.595, 0, 1.0003002950819935, 1.0018233377197796, 0.0018275831826031208, 0.0016069047851487994, 0.01939493604004383, 0, 0
613459728.8166778, -35.35061975, 149.15733054999998, 657.275, 0, 1.0021901036435072, 1.0066618101428104, 0.00017252471297979355, 0.0014197974232956767, 0.01824924722313881, 0, 0
613459733.8271248, -35.350192, 149.15726189999998, 653.835, 0, 1.0013437300687187, 1.0028384715396592, 0.00016007397789508104, 0.00019122578669339418, 0.015900665894150734, 0, 0
613459738.8206248, -35.3497641, 149.15719235, 643.895, 0, 1.0028939072608969, 1.0049701488104013, 0.0011302006896585226, 0.0005978759727440774, 0.0003469731891527772, 0, 0
613459743.8257859, -35.34933785, 149.15712075, 637.545, 0, 1.0041604992326008, 1.0045984272334891, 0.0014161935541778803, 0.0015684373211115599, 0.0071987127885222435, 0, 0
613459748.82665, -35.348927, 149.15704805000001, 631.9449999999999, 0, 1.0028164464358014, 1.0036378829039883, 0.002268256153911352, 0.0005393592873588204, 0.01849527284502983, 0, 0
613459753.837709, -35.3485436, 149.15697534999998, 621.48, 0, 1.00227715173056, 1.0048288411465904, 0.00046017265412956476, 0.000672432011924684, 0.010266611352562904, 0, 0
613459758.823601, -35.3481958, 149.15689924999998, 618.0450000000001, 0, 1.00068234901854, 1.0026410125264176, 0.001133882673457265, 0.00022189714945852757, 0.013288876041769981, 0, 0
613459763.8425639, -35.3478906, 149.15682249999998, 608.2650000000001, 0, 1.0012890656816484, 1.001743979268156, 0.001698780688457191, 0.0005641853786073625, 0.0059232404455542564, 0, 0
613459768.5997028, -35.34763415, 149.15674715, 601.655, 0, 0.9964893197825471, 0.997221138965676, 0.0011625237530097365, 0.001100816298276186, 0.0035011868458241224, 0, 0
613459773.59636, -35.3474329, 149.15667445, 596.425, 0, 1.0843335391451006, 1.0877651400922903, 0.0006132121197879314, 0.0012203509686514735, 0.005463579203933477, 1, 0
613459778.6037369, -35.347289849999996, 149.1566018, 590.435, 0, 0.9996032317169384, 1.0002189760247502, 0.00018767686560750008, 0.0007722667651250958, 0.021999746561050415, 0, 0
613459783.840694, -35.34718785, 149.15653179999998, 591.725, 0, 1.0002334935873236, 1.0041010905282395, 0.00031525827944278717, 0.0013575474731624126, 0.003934373147785664, 0, 0
613459788.842723, -35.3471179, 149.15646325, 586.8499999999999, 0, 1.0064484135423144, 1.0080580340436753, 0.0013688402250409126, 0.001733363838866353, 0.013197260908782482, 0, 0
613459793.601377, -35.3470864, 149.1564113, 585.3, 0, 1.0005, 1.001, 0.0005131310899741948, 0.0004047570691909641, 0.002498714253306389, 0, 0
613459798.607476, -35.3470864, 149.1564113, 587.3199999999999, 0, 1.001, 1.001, 0.0003178922343067825, 0.0003711396420840174, 0.0011226654751226306, 0, 0
613459803.833745, -35.3470864, 149.1564113, 583.81, 0, 1.001, 1.001, 0.00019682722631841898, 0.0007382266921922565, 0.0010443655773997307, 0, 0
